places = [{"location":"Wichita, Kansas","number":"20","livingExpenses":25.88,"latitude":37.687176,"longitude":-97.330055},
{"location":"Lafayette, Louisiana","number":"19","livingExpenses":25.84,"latitude":30.224091,"longitude":-92.019844},
{"location":"Little Rock, Arkansas","number":"18","livingExpenses":25.77,"latitude":34.746483,"longitude":-92.289597},
{"location":"Baton Rouge, Louisiana","number":"17","livingExpenses":25.71,"latitude":30.44332,"longitude":-91.18749},
{"location":"Syracuse, New York","number":"16","livingExpenses":25.7,"latitude":43.048122,"longitude":-76.147423},
{"location":"Louisville, Kentucky","number":"15","livingExpenses":25.55,"latitude":38.256081,"longitude":-85.751572},
{"location":"Cincinnati, Ohio","number":"14","livingExpenses":25.47,"latitude":39.103119,"longitude":-84.512016},
{"location":"Raleigh and Durham, North Carolina","number":"13","livingExpenses":25.38,"latitude":35.92743,"longitude":-78.75317},
{"location":"Lexington-Fayeete, Kentucky","number":"12","livingExpenses":25.38,"latitude":38.04636,"longitude":-84.49702},
{"location":"Pittsburgh, Pennsylvania","number":"11","livingExpenses":25.34,"latitude":40.442169,"longitude":-79.994957},
{"location":"Buffalo, New York","number":"10","livingExpenses":25.26,"latitude":42.886448,"longitude":-78.878372},
{"location":"Minneapolis-St. Paul","number":"9","livingExpenses":25.06,"latitude":44.95108,"longitude":-93.32388},
{"location":"Fayetteville, Arkansas","number":"8","livingExpenses":25.05,"latitude":36.082157,"longitude":-94.171852},
{"location":"Omaha, Nebraska","number":"7","livingExpenses":25.05,"latitude":41.256538,"longitude":-95.934502},
{"location":"Salt Lake City, Utah","number":"6","livingExpenses":25.02,"latitude":40.76078,"longitude":-111.891045},
{"location":"Indianapolis, Indiana","number":"5","livingExpenses":24.75,"latitude":39.768402,"longitude":-86.158066},
{"location":"Grand Rapids, Michigan","number":"4","livingExpenses":24.6,"latitude":42.96336,"longitude":-85.668083},
{"location":"Des Moines, Iowa","number":"3","livingExpenses":23.52,"latitude":41.588821,"longitude":-93.620308},
{"location":"Fort Wayne, Indiana","number":"2","livingExpenses":22.86,"latitude":41.079273,"longitude":-85.139351},
{"location":"Huntsville, Alabama","number":"1","livingExpenses":22.56,"latitude":34.729542,"longitude":-86.585297}]
